{"business_id":"0DI8Dt2PJp07XkVvIElIcQ","name":"Innovative Vapors","neighborhood":"","address":"227 E Baseline Rd, Ste J2","city":"Tempe","state":"AZ","postal_code":"85283","latitude":33.3782141,"longitude":-111.936102,"stars":4.5,"review_count":17,"is_open":0,"attributes":["BikeParking: True","BusinessAcceptsBitcoin: False","BusinessAcceptsCreditCards: True","BusinessParking: {'garage': False, 'street': False, 'validated': False, 'lot': True, 'valet': False}","DogsAllowed: False","RestaurantsPriceRange2: 2","WheelchairAccessible: True"],"categories":["Tobacco Shops","Nightlife","Vape Shops","Shopping"],"hours":["Monday 11:0-21:0","Tuesday 11:0-21:0","Wednesday 11:0-21:0","Thursday 11:0-21:0","Friday 11:0-22:0","Saturday 10:0-22:0","Sunday 11:0-18:0"],"type":"business"}
{"business_id":"LTlCaCGZE14GuaUXUGbamg","name":"Cut and Taste","neighborhood":"","address":"495 S Grand Central Pkwy","city":"Las Vegas","state":"NV","postal_code":"89106","latitude":36.1922841,"longitude":-115.1592718,"stars":5.0,"review_count":9,"is_open":1,"attributes":["BusinessAcceptsBitcoin: False","BusinessAcceptsCreditCards: True"],"categories":["Caterers","Grocery","Food","Event Planning & Services","Party & Event Planning","Specialty Food"],"hours":["Monday 0:0-0:0","Tuesday 0:0-0:0","Wednesday 0:0-0:0","Thursday 0:0-0:0","Friday 0:0-0:0","Saturday 0:0-0:0","Sunday 0:0-0:0"],"type":"business"}
{"business_id":"EDqCEAGXVGCH4FJXgqtjqg","name":"Pizza Pizza","neighborhood":"Dufferin Grove","address":"979 Bloor Street W","city":"Toronto","state":"ON","postal_code":"M6H 1L5","latitude":43.661054,"longitude":-79.429089,"stars":2.5,"review_count":7,"is_open":1,"attributes":["Alcohol: none","Ambience: {'romantic': False, 'intimate': False, 'classy': False, 'hipster': False, 'touristy': False, 'trendy': False, 'upscale': False, 'casual': False}","BikeParking: True","BusinessAcceptsCreditCards: True","BusinessParking: {'garage': False, 'street': False, 'validated': False, 'lot': False, 'valet': False}","Caters: True","GoodForKids: True","GoodForMeal: {'dessert': False, 'latenight': False, 'lunch': False, 'dinner': False, 'breakfast': False, 'brunch': False}","HasTV: True","NoiseLevel: quiet","OutdoorSeating: False","RestaurantsAttire: casual","RestaurantsDelivery: True","RestaurantsGoodForGroups: True","RestaurantsPriceRange2: 1","RestaurantsReservations: False","RestaurantsTableService: False","RestaurantsTakeOut: True","WiFi: free"],"categories":["Restaurants","Pizza","Chicken Wings","Italian"],"hours":["Monday 11:0-2:0","Tuesday 11:0-2:0","Wednesday 11:0-2:0","Thursday 11:0-3:0","Friday 11:0-3:0","Saturday 11:0-3:0","Sunday 11:0-2:0"],"type":"business"}
{"business_id":"cnGIivYRLxpF7tBVR_JwWA","name":"Plush Salon and Spa","neighborhood":"","address":"7014 Steubenville Pike","city":"Oakdale","state":"PA","postal_code":"15071","latitude":40.4445439533,"longitude":-80.1745398943,"stars":4.0,"review_count":4,"is_open":1,"attributes":["AcceptsInsurance: False","BusinessAcceptsCreditCards: True","BusinessParking: {'garage': False, 'street': False, 'validated': False, 'lot': True, 'valet': False}","ByAppointmentOnly: True","HairSpecializesIn: {'coloring': False, 'africanamerican': False, 'curly': False, 'perms': False, 'kids': False, 'extensions': False, 'asian': False, 'straightperms': False}","RestaurantsPriceRange2: 3"],"categories":["Hair Removal","Beauty & Spas","Blow Dry\/Out Services","Hair Stylists","Hair Extensions","Massage","Permanent Makeup","Waxing","Hair Salons"],"hours":["Tuesday 10:0-21:0","Wednesday 10:0-21:0","Thursday 10:0-21:0","Friday 10:0-18:0","Saturday 9:0-16:0"],"type":"business"}
{"business_id":"cdk-qqJ71q6P7TJTww_DSA","name":"Comfort Inn","neighborhood":"Downtown Core","address":"321 Jarvis Street","city":"Toronto","state":"ON","postal_code":"M5B 2C2","latitude":43.6598286,"longitude":-79.3754006,"stars":3.0,"review_count":8,"is_open":1,"attributes":["BusinessAcceptsCreditCards: True","RestaurantsPriceRange2: 2","WiFi: free"],"categories":["Hotels & Travel","Event Planning & Services","Hotels"],"hours":null,"type":"business"}
{"business_id":"Q9rsaUiQ-A3NdEAloy0aJA","name":"A Plus Nail","neighborhood":"","address":"30 Gibson Drive, Suite122","city":"Markham","state":"ON","postal_code":"L3R 2S3","latitude":43.82764,"longitude":-79.342722,"stars":2.5,"review_count":3,"is_open":1,"attributes":["BusinessAcceptsCreditCards: True","ByAppointmentOnly: True","RestaurantsPriceRange2: 3"],"categories":["Nail Salons","Beauty & Spas"],"hours":["Monday 10:30-20:0","Tuesday 10:30-20:0","Thursday 10:30-20:0","Friday 10:30-20:0","Saturday 10:30-19:0","Sunday 10:30-19:0"],"type":"business"}
{"business_id":"Cu4_Fheh7IrzGiK-Pc79ig","name":"Boomerang Baby","neighborhood":"","address":"10875 N Frankloyd Wright Blvd","city":"Scottsdale","state":"AZ","postal_code":"85259","latitude":33.5852707,"longitude":-111.8349538,"stars":3.5,"review_count":8,"is_open":1,"attributes":["BikeParking: True","BusinessAcceptsCreditCards: True","BusinessParking: {'garage': False, 'street': False, 'validated': False, 'lot': True, 'valet': False}","RestaurantsPriceRange2: 2","WheelchairAccessible: True"],"categories":["Baby Gear & Furniture","Shopping"],"hours":["Monday 10:0-18:0","Tuesday 10:0-18:0","Wednesday 10:0-18:0","Thursday 10:0-18:0","Friday 10:0-18:0","Saturday 10:0-18:0","Sunday 11:0-16:0"],"type":"business"}
{"business_id":"GDnbt3isfhd57T1QqU6flg","name":"Taco Bell","neighborhood":"","address":"11072 No Frank Lloyd Wright","city":"Scottsdale","state":"AZ","postal_code":"85259","latitude":33.58671,"longitude":-111.83541,"stars":2.5,"review_count":9,"is_open":1,"attributes":["Alcohol: none","Ambience: {'romantic': False, 'intimate': False, 'classy': False, 'hipster': False, 'divey': False, 'touristy': False, 'trendy': False, 'upscale': False, 'casual': False}","BikeParking: True","BusinessAcceptsCreditCards: True","BusinessParking: {'garage': False, 'street': False, 'validated': False, 'lot': False, 'valet': False}","DriveThru: True","GoodForKids: True","GoodForMeal: {'dessert': False, 'latenight': False, 'lunch': False, 'dinner': False, 'breakfast': False, 'brunch': False}","HasTV: False","NoiseLevel: quiet","OutdoorSeating: False","RestaurantsAttire: casual","RestaurantsDelivery: False","RestaurantsGoodForGroups: True","RestaurantsPriceRange2: 1","RestaurantsReservations: False","RestaurantsTableService: False","RestaurantsTakeOut: True","WiFi: no"],"categories":["Tex-Mex","Mexican","Fast Food","Restaurants"],"hours":["Monday 10:0-22:0","Tuesday 10:0-22:0","Wednesday 10:0-22:0","Thursday 10:0-22:0","Friday 10:0-22:0","Saturday 10:0-22:0","Sunday 10:0-22:0"],"type":"business"}
{"business_id":"qwAHit4Tuj1zpO7CxVwOMA","name":"CubeSmart Self Storage","neighborhood":"","address":"11000 North 115th Street","city":"Scottsdale","state":"AZ","postal_code":"85259","latitude":33.5864403,"longitude":-111.8325788,"stars":4.5,"review_count":11,"is_open":1,"attributes":["BusinessAcceptsCreditCards: True"],"categories":["Local Services","Self Storage"],"hours":["Monday 9:30-18:0","Tuesday 9:30-18:0","Wednesday 9:30-18:0","Thursday 9:30-18:0","Friday 9:30-18:0","Saturday 8:30-17:0","Sunday 11:0-15:0"],"type":"business"}
